[
   {
      "address": "7659 Birch Ln, Nampa, ID 83687, USA",
      "lat": "43.6120753",
      "lng": "-116.5463352",
      "zoom": "14",
      "place_id": "ChIJwdUpmhlNrlQRZnZWn7WW8d8",
      "name": "7659 Birch Ln",
      "street_number": "7659",
      "street_name": "Birch Lane",
      "street_name_short": "Birch Ln",
      "city": "Nampa",
      "state": "Idaho",
      "state_short": "ID",
      "post_code": "83687",
      "country": "United States",
      "country_short": "US"
   },
   {
      "address": "1448 S Ash Ave, Kuna, ID 83634, USA",
      "lat": "43.4754538",
      "lng": "-116.4281281",
      "zoom": "14",
      "place_id": "ChIJ8ejK6atFrlQRjNh5UJLfhYM",
      "name": "1448 S Ash Ave",
      "street_number": "1448",
      "street_name": "South Ash Avenue",
      "street_name_short": "S Ash Ave",
      "city": "Kuna",
      "state": "Idaho",
      "state_short": "ID",
      "post_code": "83634",
      "country": "United States",
      "country_short": "US"
   },
   {
      "address": "677 North Siltstone Way, Kuna, ID 83634, USA",
      "lat": "43.5051325",
      "lng": "-116.4006735",
      "zoom": "14",
      "place_id": "EiROIFNpbHRzdG9uZSBXYXksIEt1bmEsIElEIDgzNjM0LCBVU0EiLiosChQKEgmbCg0kTkWuVBHpTag68CtANRIUChIJUaJmE2lFrlQRvNCFSAG-zhk",
      "name": "North Siltstone Way",
      "street_name": "North Siltstone Way",
      "street_name_short": "N Siltstone Way",
      "city": "Kuna",
      "state": "Idaho",
      "state_short": "ID",
      "post_code": "83634",
      "country": "United States",
      "country_short": "US"
   },
   {
      "address": "131 E Keswick Ct, Kuna, ID 83634, USA",
      "lat": "43.4973454",
      "lng": "-116.413157",
      "zoom": "14",
      "place_id": "ChIJhWUM10FFrlQRIYXjq_zHsFw",
      "name": "131 E Keswick Ct",
      "street_number": "131",
      "street_name": "East Keswick Court",
      "street_name_short": "E Keswick Ct",
      "city": "Kuna",
      "state": "Idaho",
      "state_short": "ID",
      "post_code": "83634",
      "country": "United States",
      "country_short": "US"
   },
   {
      "address": "10672 W Alliance St, Boise, ID 83713, USA",
      "lat": "43.6406465",
      "lng": "-116.3154003",
      "zoom": "14",
      "place_id": "ChIJb5i9OLxVrlQRFGJrS44PjWg",
      "name": "10672 W Alliance St",
      "street_number": "10672",
      "street_name": "West Alliance Street",
      "street_name_short": "W Alliance St",
      "city": "Boise",
      "state": "Idaho",
      "state_short": "ID",
      "post_code": "83713",
      "country": "United States",
      "country_short": "US"
   },
   {
      "address": "748 North Troutner Way, Boise, ID 83712, USA",
      "lat": "43.611726",
      "lng": "-116.1606982",
      "zoom": "14",
      "place_id": "ChIJRX_2yKH5rlQRAzrEa1JpBQg",
      "name": "748 N Troutner Way",
      "street_number": "748",
      "street_name": "North Troutner Way",
      "street_name_short": "N Troutner Way",
      "city": "Boise",
      "state": "Idaho",
      "state_short": "ID",
      "post_code": "83712",
      "country": "United States",
      "country_short": "US"
   },
   {
      "address": "400 North Benjamin Lane, Boise, ID, USA",
      "lat": "43.6089445",
      "lng": "-116.2873523",
      "zoom": "14",
      "place_id": "ChIJiftamG5WrlQR7ho2oove6yo",
      "name": "400 N Benjamin Ln",
      "street_number": "400",
      "street_name": "North Benjamin Lane",
      "street_name_short": "N Benjamin Ln",
      "city": "Boise",
      "state": "Idaho",
      "state_short": "ID",
      "post_code": "83704",
      "country": "United States",
      "country_short": "US"
   },
   {
      "address": "2152 North Lark Avenue, Meridian, ID 83646, USA",
      "lat": "43.6253013",
      "lng": "-116.3838713",
      "zoom": "14",
      "place_id": "EigyMTUyIE4gTGFyayBBdmUsIE1lcmlkaWFuLCBJRCA4MzY0NiwgVVNBIjESLwoUChIJW6AVp3dUrlQRGJvVVZNxWxEQ6BAqFAoSCa8dYHF3VK5UEZbLV2oYIKFo",
      "name": "2152 N Lark Ave",
      "street_number": "2152",
      "street_name": "North Lark Avenue",
      "street_name_short": "N Lark Ave",
      "city": "Meridian",
      "state": "Idaho",
      "state_short": "ID",
      "post_code": "83646",
      "country": "United States",
      "country_short": "US"
   },
   {
      "address": "923 S Otter Ave, Meridian, ID 83642, USA",
      "lat": "43.596353",
      "lng": "-116.412215",
      "zoom": "14",
      "place_id": "ChIJg6Ui_tNTrlQRVNzuRFchfK8",
      "name": "923 S Otter Ave",
      "street_number": "923",
      "street_name": "South Otter Avenue",
      "street_name_short": "S Otter Ave",
      "city": "Meridian",
      "state": "Idaho",
      "state_short": "ID",
      "post_code": "83642",
      "country": "United States",
      "country_short": "US"
   },
   {
      "address": "2415 Gail Dr, Pocatello, ID 83201, USA",
      "lat": "42.891563",
      "lng": "-112.4182019",
      "zoom": "14",
      "place_id": "ChIJ9_AiJ6VIVVMRClwcGNpFmn4",
      "name": "2415 Gail Dr",
      "street_number": "2415",
      "street_name": "Gail Drive",
      "street_name_short": "Gail Dr",
      "city": "Pocatello",
      "state": "Idaho",
      "state_short": "ID",
      "post_code": "83201",
      "country": "United States",
      "country_short": "US"
   },
   {
      "address": "7659 Birch Ln, Nampa, ID 83687, USA",
      "lat": "43.6120753",
      "lng": "-116.5463352",
      "zoom": "14",
      "place_id": "ChIJwdUpmhlNrlQRZnZWn7WW8d8",
      "name": "7659 Birch Ln",
      "street_number": "7659",
      "street_name": "Birch Lane",
      "street_name_short": "Birch Ln",
      "city": "Nampa",
      "state": "Idaho",
      "state_short": "ID",
      "post_code": "83687",
      "country": "United States",
      "country_short": "US"
   }
]